{"version": 0.6, "generator": "Overpass API 0.7.61.5 4133829e", "osm3s": {"timestamp_osm_base": "2023-08-24T15:42:15Z", "copyright": "The data included in this document is from www.openstreetmap.org. The data is made available under ODbL."}, "elements": [{"type": "node", "id": 3043848943, "lat": 27.6337082, "lon": 85.5190666, "tags": {"amenity": "community_centre", "name": "Layaku (\u0932\u093e\u092f\u094d \u0915\u0941) - \ud805\udc2e\ud805\udc35\ud805\udc2b\ud805\udc42\u200c\ud805\udc0e\ud805\udc38"}}, {"type": "node", "id": 4537014392, "lat": 27.6276597, "lon": 85.5325254, "tags": {"amenity": "community_centre", "name:en": "Budol Covered Hall"}}, {"type": "node", "id": 4537050793, "lat": 27.6264023, "lon": 85.5310859, "tags": {"amenity": "community_centre", "name:en": "Chetana Kendra"}}, {"type": "node", "id": 4537051091, "lat": 27.6278105, "lon": 85.5304479, "tags": {"addr:street": "budol", "amenity": "community_centre", "name:en": "Red Cross Banepa", "office": "ngo"}}, {"type": "node", "id": 4537051693, "lat": 27.6258079, "lon": 85.531143, "tags": {"amenity": "community_centre", "name:en": "Volleyball Court"}}, {"type": "node", "id": 4586287790, "lat": 27.6423157, "lon": 85.539973, "tags": {"amenity": "community_centre"}}, {"type": "node", "id": 4586328890, "lat": 27.6420244, "lon": 85.5406493, "tags": {"addr:housenumber": "1", "addr:street": "Chandeshwori Marg", "amenity": "community_centre"}}, {"type": "node", "id": 4612528489, "lat": 27.6080432, "lon": 85.5599471, "tags": {"amenity": "community_centre", "name:en": "Search Nepal training Centre"}}, {"type": "node", "id": 4765999653, "lat": 27.666819, "lon": 85.4902486, "tags": {"amenity": "community_centre", "name": "Emergency Equipments Stockpile"}}, {"type": "node", "id": 5227839424, "lat": 27.6171454, "lon": 85.5559336, "tags": {"addr:postcode": "45200", "addr:street": "Devisthan Road", "amenity": "community_centre", "name:en": "NGO FEDERATION"}}, {"type": "node", "id": 5426504322, "lat": 27.6573234, "lon": 85.4628208, "tags": {"addr:street": "Arniko Raj Marga", "amenity": "community_centre", "email": "chittapolclc@gmail.com", "internet_access": "wlan", "name:en": "chittapol clc"}}, {"type": "node", "id": 5661000923, "lat": 27.632929, "lon": 85.5164318, "tags": {"addr:street": "Jyatan Lal Sadak", "amenity": "community_centre", "name:en": "Panchakanya Banquet Pvt Ltd"}}, {"type": "node", "id": 7056379587, "lat": 27.6234871, "lon": 85.5471052, "tags": {"addr:street": "Nawashanti Marg", "amenity": "community_centre", "name:en": "NAWA SHANTI TOLE SUDHAR SAMIT"}}, {"type": "node", "id": 10235132735, "lat": 27.6668352, "lon": 85.5107034, "tags": {"amenity": "community_centre", "name": "Leisure hall"}}, {"type": "node", "id": 10235132743, "lat": 27.6326587, "lon": 85.4969617, "tags": {"addr:street": "Bhaisipati", "amenity": "community_centre", "name": "Hall"}}, {"type": "node", "id": 10235132749, "lat": 27.6328219, "lon": 85.5240482, "tags": {"amenity": "community_centre", "name": "Yog Bhawan"}}]}